[{"id": "R_clG6jfCQCKHkEGpAUGxA", "alias": "champa-garden-redding", "name": "Champa Garden", "image_url": "https://s3-media3.fl.yelpcdn.com/bphoto/6NUt98KEr99VMx-Vsrlj-Q/o.jpg", "is_closed": false, "url": "https://www.yelp.com/biz/champa-garden-redding?adjust_creative=zK_8YyrBF4oJMk_q6FAH-w&utm_campaign=yelp_api_v3&utm_medium=api_v3_business_search&utm_source=zK_8YyrBF4oJMk_q6FAH-w", "review_count": 889, "categories": [{"alias": "thai", "title": "Thai"}, {"alias": "laotian", "title": "Laotian"}, {"alias": "vietnamese", "title": "Vietnamese"}], "rating": 4.5, "coordinates": {"latitude": 40.59129, "longitude": -122.35724}, "transactions": ["delivery"], "price": "$$", "location": {"address1": "1107 Hilltop Dr", "address2": "", "address3": "", "city": "Redding", "zip_code": "96003", "country": "US", "state": "CA", "display_address": ["1107 Hilltop Dr", "Redding, CA 96003"]}, "phone": "+15302214999", "display_phone": "(530) 221-4999", "distance": 1942.4620899850443}, {"id": "3ZgGOThmrvrYBnmKgyFYJg", "alias": "thai-hut-redding", "name": "Thai Hut", "image_url": "https://s3-media3.fl.yelpcdn.com/bphoto/h9vbTVHYr3LwcZ4OUkDmPg/o.jpg", "is_closed": false, "url": "https://www.yelp.com/biz/thai-hut-redding?adjust_creative=zK_8YyrBF4oJMk_q6FAH-w&utm_campaign=yelp_api_v3&utm_medium=api_v3_business_search&utm_source=zK_8YyrBF4oJMk_q6FAH-w", "review_count": 445, "categories": [{"alias": "thai", "title": "Thai"}], "rating": 4.5, "coordinates": {"latitude": 40.5634528076853, "longitude": -122.349838749377}, "transactions": ["delivery"], "price": "$$", "location": {"address1": "1165 Hartnell Ave", "address2": "", "address3": "", "city": "Redding", "zip_code": "96002", "country": "US", "state": "CA", "display_address": ["1165 Hartnell Ave", "Redding, CA 96002"]}, "phone": "+15302228405", "display_phone": "(530) 222-8405", "distance": 1549.3457604945086}, {"id": "PrpQJCxSl9CDYWZcYTMwtg", "alias": "janyas-thai-cuisine-redding", "name": "Janyas Thai Cuisine", "image_url": "https://s3-media4.fl.yelpcdn.com/bphoto/PzQj2N-0kDj-0lQHPL9fHg/o.jpg", "is_closed": false, "url": "https://www.yelp.com/biz/janyas-thai-cuisine-redding?adjust_creative=zK_8YyrBF4oJMk_q6FAH-w&utm_campaign=yelp_api_v3&utm_medium=api_v3_business_search&utm_source=zK_8YyrBF4oJMk_q6FAH-w", "review_count": 278, "categories": [{"alias": "thai", "title": "Thai"}], "rating": 4.0, "coordinates": {"latitude": 40.5979018677537, "longitude": -122.38669463301}, "transactions": ["delivery"], "price": "$$", "location": {"address1": "630 N Market St", "address2": "", "address3": "", "city": "Redding", "zip_code": "96003", "country": "US", "state": "CA", "display_address": ["630 N Market St", "Redding, CA 96003"]}, "phone": "+15302437682", "display_phone": "(530) 243-7682", "distance": 3386.5649286135636}, {"id": "QtF_5NfBvn3PvRS9nKvHZw", "alias": "rose-garden-redding-2", "name": "Rose Garden", "image_url": "https://s3-media4.fl.yelpcdn.com/bphoto/N7_n1R7rgP_Iv_6ZK4N62g/o.jpg", "is_closed": false, "url": "https://www.yelp.com/biz/rose-garden-redding-2?adjust_creative=zK_8YyrBF4oJMk_q6FAH-w&utm_campaign=yelp_api_v3&utm_medium=api_v3_business_search&utm_source=zK_8YyrBF4oJMk_q6FAH-w", "review_count": 181, "categories": [{"alias": "thai", "title": "Thai"}, {"alias": "vietnamese", "title": "Vietnamese"}, {"alias": "laotian", "title": "Laotian"}], "rating": 4.0, "coordinates": {"latitude": 40.5702422, "longitude": -122.3875525}, "transactions": [], "price": "$", "location": {"address1": "2825 S Market St", "address2": "", "address3": "", "city": "Redding", "zip_code": "96001", "country": "US", "state": "CA", "display_address": ["2825 S Market St", "Redding, CA 96001"]}, "phone": "+15302438863", "display_phone": "(530) 243-8863", "distance": 2234.2842306783723}, {"id": "H6OFH-qwu5tz3StMCDnIsw", "alias": "thai-cafe-redding", "name": "Thai Cafe", "image_url": "https://s3-media2.fl.yelpcdn.com/bphoto/IzAJU88TKXgR8DI9KYptNw/o.jpg", "is_closed": false, "url": "https://www.yelp.com/biz/thai-cafe-redding?adjust_creative=zK_8YyrBF4oJMk_q6FAH-w&utm_campaign=yelp_api_v3&utm_medium=api_v3_business_search&utm_source=zK_8YyrBF4oJMk_q6FAH-w", "review_count": 111, "categories": [{"alias": "thai", "title": "Thai"}], "rating": 4.0, "coordinates": {"latitude": 40.5865325927734, "longitude": -122.382995605469}, "transactions": ["delivery"], "price": "$$", "location": {"address1": "820 Butte St", "address2": "", "address3": "", "city": "Redding", "zip_code": "96001", "country": "US", "state": "CA", "display_address": ["820 Butte St", "Redding, CA 96001"]}, "phone": "+15302435523", "display_phone": "(530) 243-5523", "distance": 2251.3156243787093}, {"id": "IiI1sEa6Eyzw-QKF_yya8A", "alias": "the-rustic-table-asian-kitchen-redding", "name": "The Rustic Table Asian Kitchen", "image_url": "https://s3-media2.fl.yelpcdn.com/bphoto/7jS012Xaqq0TYiv6eimQtw/o.jpg", "is_closed": false, "url": "https://www.yelp.com/biz/the-rustic-table-asian-kitchen-redding?adjust_creative=zK_8YyrBF4oJMk_q6FAH-w&utm_campaign=yelp_api_v3&utm_medium=api_v3_business_search&utm_source=zK_8YyrBF4oJMk_q6FAH-w", "review_count": 104, "categories": [{"alias": "asianfusion", "title": "Asian Fusion"}], "rating": 4.5, "coordinates": {"latitude": 40.57045, "longitude": -122.33838}, "transactions": [], "location": {"address1": "2527 Victor Ave", "address2": null, "address3": "", "city": "Redding", "zip_code": "96002", "country": "US", "state": "CA", "display_address": ["2527 Victor Ave", "Redding, CA 96002"]}, "phone": "+15306050098", "display_phone": "(530) 605-0098", "distance": 1999.0790681572087}, {"id": "zvganQpafUNo-WBrctmbLA", "alias": "lunas-fusion-and-bar-redding", "name": "Lunas Fusion & Bar", "image_url": "https://s3-media3.fl.yelpcdn.com/bphoto/O2OoTwP5JRnKWN12GB98zw/o.jpg", "is_closed": false, "url": "https://www.yelp.com/biz/lunas-fusion-and-bar-redding?adjust_creative=zK_8YyrBF4oJMk_q6FAH-w&utm_campaign=yelp_api_v3&utm_medium=api_v3_business_search&utm_source=zK_8YyrBF4oJMk_q6FAH-w", "review_count": 53, "categories": [{"alias": "asianfusion", "title": "Asian Fusion"}, {"alias": "diners", "title": "Diners"}], "rating": 4.0, "coordinates": {"latitude": 40.56497, "longitude": -122.35341}, "transactions": [], "price": "$$", "location": {"address1": "2914 Churn Creek Rd", "address2": null, "address3": "", "city": "Redding", "zip_code": "96002", "country": "US", "state": "CA", "display_address": ["2914 Churn Creek Rd", "Redding, CA 96002"]}, "phone": "+15309990791", "display_phone": "(530) 999-0791", "distance": 1231.9486478425006}, {"id": "zzQKsIi2rZnySpswUeP7Fg", "alias": "racha-noodle-redding", "name": "Racha Noodle", "image_url": "https://s3-media2.fl.yelpcdn.com/bphoto/1UPuBg_S_OwD2U6iGG-6ng/o.jpg", "is_closed": false, "url": "https://www.yelp.com/biz/racha-noodle-redding?adjust_creative=zK_8YyrBF4oJMk_q6FAH-w&utm_campaign=yelp_api_v3&utm_medium=api_v3_business_search&utm_source=zK_8YyrBF4oJMk_q6FAH-w", "review_count": 132, "categories": [{"alias": "noodles", "title": "Noodles"}], "rating": 4.0, "coordinates": {"latitude": 40.57189, "longitude": -122.38845}, "transactions": [], "price": "$$", "location": {"address1": "2630 S Market St", "address2": "", "address3": "", "city": "Redding", "zip_code": "96001", "country": "US", "state": "CA", "display_address": ["2630 S Market St", "Redding, CA 96001"]}, "phone": "+15302468730", "display_phone": "(530) 246-8730", "distance": 2306.3764450305557}, {"id": "OWueaFhxWzPLohp2c-OQSw", "alias": "thai-house-restaurant-redding", "name": "Thai House Restaurant", "image_url": "https://s3-media3.fl.yelpcdn.com/bphoto/8q-UlsnkMoL7cWpKrKMe5A/o.jpg", "is_closed": false, "url": "https://www.yelp.com/biz/thai-house-restaurant-redding?adjust_creative=zK_8YyrBF4oJMk_q6FAH-w&utm_campaign=yelp_api_v3&utm_medium=api_v3_business_search&utm_source=zK_8YyrBF4oJMk_q6FAH-w", "review_count": 7, "categories": [{"alias": "thai", "title": "Thai"}, {"alias": "chinese", "title": "Chinese"}], "rating": 4.5, "coordinates": {"latitude": 40.567209, "longitude": -122.353453}, "transactions": ["restaurant_reservation"], "location": {"address1": "2772 Churn Crk Rd", "address2": null, "address3": "", "city": "Redding", "zip_code": "96002", "country": "US", "state": "CA", "display_address": ["2772 Churn Crk Rd", "Redding, CA 96002"]}, "phone": "+15302226868", "display_phone": "(530) 222-6868", "distance": 1034.466797945943}, {"id": "WvpwRHZpvRQITjfrWpb53Q", "alias": "kasalong-thai-cuisine-redding", "name": "Kasalong Thai Cuisine", "image_url": "https://s3-media3.fl.yelpcdn.com/bphoto/6PNtqr2gBElOqiJY7_FdWg/o.jpg", "is_closed": false, "url": "https://www.yelp.com/biz/kasalong-thai-cuisine-redding?adjust_creative=zK_8YyrBF4oJMk_q6FAH-w&utm_campaign=yelp_api_v3&utm_medium=api_v3_business_search&utm_source=zK_8YyrBF4oJMk_q6FAH-w", "review_count": 1, "categories": [{"alias": "foodtrucks", "title": "Food Trucks"}, {"alias": "thai", "title": "Thai"}], "rating": 5.0, "coordinates": {"latitude": 40.5245627, "longitude": -122.38322681084873}, "transactions": [], "location": {"address1": "6185 Westside Rd", "address2": null, "address3": "", "city": "Redding", "zip_code": "96001", "country": "US", "state": "CA", "display_address": ["6185 Westside Rd", "Redding, CA 96001"]}, "phone": "+15306916803", "display_phone": "(530) 691-6803", "distance": 5807.96985276602}, {"id": "AePMatI_NRGHPMcs4aIWhg", "alias": "fusion-lounge-bar-and-grill-redding", "name": "Fusion Lounge Bar & Grill", "image_url": "https://s3-media3.fl.yelpcdn.com/bphoto/nbT3LSXd2BdebQi7zxyRfA/o.jpg", "is_closed": false, "url": "https://www.yelp.com/biz/fusion-lounge-bar-and-grill-redding?adjust_creative=zK_8YyrBF4oJMk_q6FAH-w&utm_campaign=yelp_api_v3&utm_medium=api_v3_business_search&utm_source=zK_8YyrBF4oJMk_q6FAH-w", "review_count": 159, "categories": [{"alias": "asianfusion", "title": "Asian Fusion"}, {"alias": "newamerican", "title": "American (New)"}, {"alias": "wraps", "title": "Wraps"}], "rating": 4.5, "coordinates": {"latitude": 40.581835, "longitude": -122.3918033}, "transactions": ["delivery"], "price": "$$", "location": {"address1": "1545 Placer St", "address2": "", "address3": "", "city": "Redding", "zip_code": "96001", "country": "US", "state": "CA", "display_address": ["1545 Placer St", "Redding, CA 96001"]}, "phone": "+15307681360", "display_phone": "(530) 768-1360", "distance": 2690.1546793132966}, {"id": "OvkrWSyJAnny0KTxmTL8BQ", "alias": "leiz-house-seafood-and-noodle-redding", "name": "Leiz House Seafood & Noodle", "image_url": "https://s3-media2.fl.yelpcdn.com/bphoto/TA-EohcH_bMGzg0a4pp8GA/o.jpg", "is_closed": false, "url": "https://www.yelp.com/biz/leiz-house-seafood-and-noodle-redding?adjust_creative=zK_8YyrBF4oJMk_q6FAH-w&utm_campaign=yelp_api_v3&utm_medium=api_v3_business_search&utm_source=zK_8YyrBF4oJMk_q6FAH-w", "review_count": 71, "categories": [{"alias": "seafood", "title": "Seafood"}, {"alias": "noodles", "title": "Noodles"}], "rating": 4.5, "coordinates": {"latitude": 40.5946876570719, "longitude": -122.359822131693}, "transactions": [], "price": "$$", "location": {"address1": "920 Hilltop Dr", "address2": "Ste A", "address3": null, "city": "Redding", "zip_code": "96003", "country": "US", "state": "CA", "display_address": ["920 Hilltop Dr", "Ste A", "Redding, CA 96003"]}, "phone": "+15302151530", "display_phone": "(530) 215-1530", "distance": 2289.357527689063}, {"id": "IH6C0kOyZ_Mq3FilB8qPGg", "alias": "pho-saigon-redding", "name": "Pho Saigon", "image_url": "https://s3-media3.fl.yelpcdn.com/bphoto/e5lNUj5eGI8NA0AqV29ajA/o.jpg", "is_closed": false, "url": "https://www.yelp.com/biz/pho-saigon-redding?adjust_creative=zK_8YyrBF4oJMk_q6FAH-w&utm_campaign=yelp_api_v3&utm_medium=api_v3_business_search&utm_source=zK_8YyrBF4oJMk_q6FAH-w", "review_count": 138, "categories": [{"alias": "vietnamese", "title": "Vietnamese"}], "rating": 3.5, "coordinates": {"latitude": 40.566944, "longitude": -122.370404}, "transactions": ["delivery"], "price": "$$", "location": {"address1": "236 Hartnell Ave", "address2": "", "address3": "", "city": "Redding", "zip_code": "96002", "country": "US", "state": "CA", "display_address": ["236 Hartnell Ave", "Redding, CA 96002"]}, "phone": "+15302239888", "display_phone": "(530) 223-9888", "distance": 1092.467119479218}, {"id": "HSYAmm-BN1etAeWPrgZb_A", "alias": "kanya-market-redding", "name": "Kanya Market", "image_url": "https://s3-media2.fl.yelpcdn.com/bphoto/0ruT9SpCB1hEg7jj4zVfIQ/o.jpg", "is_closed": false, "url": "https://www.yelp.com/biz/kanya-market-redding?adjust_creative=zK_8YyrBF4oJMk_q6FAH-w&utm_campaign=yelp_api_v3&utm_medium=api_v3_business_search&utm_source=zK_8YyrBF4oJMk_q6FAH-w", "review_count": 64, "categories": [{"alias": "hotdogs", "title": "Fast Food"}, {"alias": "thai", "title": "Thai"}], "rating": 4.0, "coordinates": {"latitude": 40.564221, "longitude": -122.353474}, "transactions": ["delivery"], "price": "$", "location": {"address1": "970 Hartnell Ave", "address2": "", "address3": "", "city": "Redding", "zip_code": "96002", "country": "US", "state": "CA", "display_address": ["970 Hartnell Ave", "Redding, CA 96002"]}, "phone": "+15302227609", "display_phone": "(530) 222-7609", "distance": 1299.5160515359833}, {"id": "6V9a5Adj-aFy2ZSM09h0sg", "alias": "boba-tea-and-coffee-redding", "name": "Boba Tea & Coffee", "image_url": "https://s3-media3.fl.yelpcdn.com/bphoto/NTr5vMEl8TYhbFDtlUdP-A/o.jpg", "is_closed": false, "url": "https://www.yelp.com/biz/boba-tea-and-coffee-redding?adjust_creative=zK_8YyrBF4oJMk_q6FAH-w&utm_campaign=yelp_api_v3&utm_medium=api_v3_business_search&utm_source=zK_8YyrBF4oJMk_q6FAH-w", "review_count": 116, "categories": [{"alias": "taiwanese", "title": "Taiwanese"}, {"alias": "vietnamese", "title": "Vietnamese"}, {"alias": "coffee", "title": "Coffee & Tea"}], "rating": 4.0, "coordinates": {"latitude": 40.5639496, "longitude": -122.3529816}, "transactions": ["pickup"], "price": "$", "location": {"address1": "2999 Churn Creek Rd", "address2": "", "address3": "", "city": "Redding", "zip_code": "96002", "country": "US", "state": "CA", "display_address": ["2999 Churn Creek Rd", "Redding, CA 96002"]}, "phone": "+15302211930", "display_phone": "(530) 221-1930", "distance": 1342.647391217999}, {"id": "8DQ7BdSsO5k6N5BE3Chhcw", "alias": "new-china-redding", "name": "New China", "image_url": "https://s3-media2.fl.yelpcdn.com/bphoto/9l-4AYuJXTBK2K_Bfe7lNg/o.jpg", "is_closed": false, "url": "https://www.yelp.com/biz/new-china-redding?adjust_creative=zK_8YyrBF4oJMk_q6FAH-w&utm_campaign=yelp_api_v3&utm_medium=api_v3_business_search&utm_source=zK_8YyrBF4oJMk_q6FAH-w", "review_count": 221, "categories": [{"alias": "chinese", "title": "Chinese"}, {"alias": "seafood", "title": "Seafood"}, {"alias": "soup", "title": "Soup"}], "rating": 4.0, "coordinates": {"latitude": 40.583114, "longitude": -122.425491}, "transactions": ["delivery", "pickup"], "price": "$$", "location": {"address1": "3669 Eureka Way", "address2": "", "address3": "", "city": "Redding", "zip_code": "96001", "country": "US", "state": "CA", "display_address": ["3669 Eureka Way", "Redding, CA 96001"]}, "phone": "+15302469522", "display_phone": "(530) 246-9522", "distance": 5487.043284924989}, {"id": "4dzE57iooJCghpI5C34Ozg", "alias": "fresh-fire-grill-redding", "name": "Fresh Fire Grill - Asian/American Fusion Restaurant", "image_url": "https://s3-media3.fl.yelpcdn.com/bphoto/9twPO2kBzLBFQE5J-eLWhw/o.jpg", "is_closed": false, "url": "https://www.yelp.com/biz/fresh-fire-grill-redding?adjust_creative=zK_8YyrBF4oJMk_q6FAH-w&utm_campaign=yelp_api_v3&utm_medium=api_v3_business_search&utm_source=zK_8YyrBF4oJMk_q6FAH-w", "review_count": 87, "categories": [{"alias": "asianfusion", "title": "Asian Fusion"}, {"alias": "tradamerican", "title": "American (Traditional)"}], "rating": 4.0, "coordinates": {"latitude": 40.6115834469062, "longitude": -122.379592036909}, "transactions": ["delivery", "pickup"], "location": {"address1": "161 Lake Blvd", "address2": null, "address3": "", "city": "Redding", "zip_code": "96003", "country": "US", "state": "CA", "display_address": ["161 Lake Blvd", "Redding, CA 96003"]}, "phone": "+15307685688", "display_phone": "(530) 768-5688", "distance": 4431.579792001928}, {"id": "0KYR7h1KXWhKKnNLTZohRQ", "alias": "fresh-fire-grill-palo-cedro", "name": "Fresh Fire Grill", "image_url": "https://s3-media4.fl.yelpcdn.com/bphoto/oUGtRh9G16wraSjRTBfpzA/o.jpg", "is_closed": false, "url": "https://www.yelp.com/biz/fresh-fire-grill-palo-cedro?adjust_creative=zK_8YyrBF4oJMk_q6FAH-w&utm_campaign=yelp_api_v3&utm_medium=api_v3_business_search&utm_source=zK_8YyrBF4oJMk_q6FAH-w", "review_count": 175, "categories": [{"alias": "asianfusion", "title": "Asian Fusion"}, {"alias": "burgers", "title": "Burgers"}, {"alias": "bbq", "title": "Barbeque"}], "rating": 4.5, "coordinates": {"latitude": 40.56439573760859, "longitude": -122.23901528220894}, "transactions": ["delivery"], "price": "$", "location": {"address1": "9520 Deschutes Rd", "address2": "", "address3": "", "city": "Palo Cedro", "zip_code": "96073", "country": "US", "state": "CA", "display_address": ["9520 Deschutes Rd", "Palo Cedro, CA 96073"]}, "phone": "+15302271740", "display_phone": "(530) 227-1740", "distance": 10411.028811365093}, {"id": "R_clG6jfCQCKHkEGpAUGxA", "alias": "champa-garden-redding", "name": "Champa Garden", "image_url": "https://s3-media3.fl.yelpcdn.com/bphoto/6NUt98KEr99VMx-Vsrlj-Q/o.jpg", "is_closed": false, "url": "https://www.yelp.com/biz/champa-garden-redding?adjust_creative=zK_8YyrBF4oJMk_q6FAH-w&utm_campaign=yelp_api_v3&utm_medium=api_v3_business_search&utm_source=zK_8YyrBF4oJMk_q6FAH-w", "review_count": 889, "categories": [{"alias": "thai", "title": "Thai"}, {"alias": "laotian", "title": "Laotian"}, {"alias": "vietnamese", "title": "Vietnamese"}], "rating": 4.5, "coordinates": {"latitude": 40.59129, "longitude": -122.35724}, "transactions": ["delivery"], "price": "$$", "location": {"address1": "1107 Hilltop Dr", "address2": "", "address3": "", "city": "Redding", "zip_code": "96003", "country": "US", "state": "CA", "display_address": ["1107 Hilltop Dr", "Redding, CA 96003"]}, "phone": "+15302214999", "display_phone": "(530) 221-4999", "distance": 1942.4620899850443}, {"id": "3ZgGOThmrvrYBnmKgyFYJg", "alias": "thai-hut-redding", "name": "Thai Hut", "image_url": "https://s3-media3.fl.yelpcdn.com/bphoto/h9vbTVHYr3LwcZ4OUkDmPg/o.jpg", "is_closed": false, "url": "https://www.yelp.com/biz/thai-hut-redding?adjust_creative=zK_8YyrBF4oJMk_q6FAH-w&utm_campaign=yelp_api_v3&utm_medium=api_v3_business_search&utm_source=zK_8YyrBF4oJMk_q6FAH-w", "review_count": 445, "categories": [{"alias": "thai", "title": "Thai"}], "rating": 4.5, "coordinates": {"latitude": 40.5634528076853, "longitude": -122.349838749377}, "transactions": ["delivery"], "price": "$$", "location": {"address1": "1165 Hartnell Ave", "address2": "", "address3": "", "city": "Redding", "zip_code": "96002", "country": "US", "state": "CA", "display_address": ["1165 Hartnell Ave", "Redding, CA 96002"]}, "phone": "+15302228405", "display_phone": "(530) 222-8405", "distance": 1549.3457604945086}, {"id": "PrpQJCxSl9CDYWZcYTMwtg", "alias": "janyas-thai-cuisine-redding", "name": "Janyas Thai Cuisine", "image_url": "https://s3-media4.fl.yelpcdn.com/bphoto/PzQj2N-0kDj-0lQHPL9fHg/o.jpg", "is_closed": false, "url": "https://www.yelp.com/biz/janyas-thai-cuisine-redding?adjust_creative=zK_8YyrBF4oJMk_q6FAH-w&utm_campaign=yelp_api_v3&utm_medium=api_v3_business_search&utm_source=zK_8YyrBF4oJMk_q6FAH-w", "review_count": 278, "categories": [{"alias": "thai", "title": "Thai"}], "rating": 4.0, "coordinates": {"latitude": 40.5979018677537, "longitude": -122.38669463301}, "transactions": ["delivery"], "price": "$$", "location": {"address1": "630 N Market St", "address2": "", "address3": "", "city": "Redding", "zip_code": "96003", "country": "US", "state": "CA", "display_address": ["630 N Market St", "Redding, CA 96003"]}, "phone": "+15302437682", "display_phone": "(530) 243-7682", "distance": 3386.5649286135636}, {"id": "QtF_5NfBvn3PvRS9nKvHZw", "alias": "rose-garden-redding-2", "name": "Rose Garden", "image_url": "https://s3-media4.fl.yelpcdn.com/bphoto/N7_n1R7rgP_Iv_6ZK4N62g/o.jpg", "is_closed": false, "url": "https://www.yelp.com/biz/rose-garden-redding-2?adjust_creative=zK_8YyrBF4oJMk_q6FAH-w&utm_campaign=yelp_api_v3&utm_medium=api_v3_business_search&utm_source=zK_8YyrBF4oJMk_q6FAH-w", "review_count": 181, "categories": [{"alias": "thai", "title": "Thai"}, {"alias": "vietnamese", "title": "Vietnamese"}, {"alias": "laotian", "title": "Laotian"}], "rating": 4.0, "coordinates": {"latitude": 40.5702422, "longitude": -122.3875525}, "transactions": [], "price": "$", "location": {"address1": "2825 S Market St", "address2": "", "address3": "", "city": "Redding", "zip_code": "96001", "country": "US", "state": "CA", "display_address": ["2825 S Market St", "Redding, CA 96001"]}, "phone": "+15302438863", "display_phone": "(530) 243-8863", "distance": 2234.2842306783723}, {"id": "H6OFH-qwu5tz3StMCDnIsw", "alias": "thai-cafe-redding", "name": "Thai Cafe", "image_url": "https://s3-media2.fl.yelpcdn.com/bphoto/IzAJU88TKXgR8DI9KYptNw/o.jpg", "is_closed": false, "url": "https://www.yelp.com/biz/thai-cafe-redding?adjust_creative=zK_8YyrBF4oJMk_q6FAH-w&utm_campaign=yelp_api_v3&utm_medium=api_v3_business_search&utm_source=zK_8YyrBF4oJMk_q6FAH-w", "review_count": 111, "categories": [{"alias": "thai", "title": "Thai"}], "rating": 4.0, "coordinates": {"latitude": 40.5865325927734, "longitude": -122.382995605469}, "transactions": ["delivery"], "price": "$$", "location": {"address1": "820 Butte St", "address2": "", "address3": "", "city": "Redding", "zip_code": "96001", "country": "US", "state": "CA", "display_address": ["820 Butte St", "Redding, CA 96001"]}, "phone": "+15302435523", "display_phone": "(530) 243-5523", "distance": 2251.3156243787093}, {"id": "IiI1sEa6Eyzw-QKF_yya8A", "alias": "the-rustic-table-asian-kitchen-redding", "name": "The Rustic Table Asian Kitchen", "image_url": "https://s3-media2.fl.yelpcdn.com/bphoto/7jS012Xaqq0TYiv6eimQtw/o.jpg", "is_closed": false, "url": "https://www.yelp.com/biz/the-rustic-table-asian-kitchen-redding?adjust_creative=zK_8YyrBF4oJMk_q6FAH-w&utm_campaign=yelp_api_v3&utm_medium=api_v3_business_search&utm_source=zK_8YyrBF4oJMk_q6FAH-w", "review_count": 104, "categories": [{"alias": "asianfusion", "title": "Asian Fusion"}], "rating": 4.5, "coordinates": {"latitude": 40.57045, "longitude": -122.33838}, "transactions": [], "location": {"address1": "2527 Victor Ave", "address2": null, "address3": "", "city": "Redding", "zip_code": "96002", "country": "US", "state": "CA", "display_address": ["2527 Victor Ave", "Redding, CA 96002"]}, "phone": "+15306050098", "display_phone": "(530) 605-0098", "distance": 1999.0790681572087}, {"id": "zvganQpafUNo-WBrctmbLA", "alias": "lunas-fusion-and-bar-redding", "name": "Lunas Fusion & Bar", "image_url": "https://s3-media3.fl.yelpcdn.com/bphoto/O2OoTwP5JRnKWN12GB98zw/o.jpg", "is_closed": false, "url": "https://www.yelp.com/biz/lunas-fusion-and-bar-redding?adjust_creative=zK_8YyrBF4oJMk_q6FAH-w&utm_campaign=yelp_api_v3&utm_medium=api_v3_business_search&utm_source=zK_8YyrBF4oJMk_q6FAH-w", "review_count": 53, "categories": [{"alias": "asianfusion", "title": "Asian Fusion"}, {"alias": "diners", "title": "Diners"}], "rating": 4.0, "coordinates": {"latitude": 40.56497, "longitude": -122.35341}, "transactions": [], "price": "$$", "location": {"address1": "2914 Churn Creek Rd", "address2": null, "address3": "", "city": "Redding", "zip_code": "96002", "country": "US", "state": "CA", "display_address": ["2914 Churn Creek Rd", "Redding, CA 96002"]}, "phone": "+15309990791", "display_phone": "(530) 999-0791", "distance": 1231.9486478425006}, {"id": "zzQKsIi2rZnySpswUeP7Fg", "alias": "racha-noodle-redding", "name": "Racha Noodle", "image_url": "https://s3-media2.fl.yelpcdn.com/bphoto/1UPuBg_S_OwD2U6iGG-6ng/o.jpg", "is_closed": false, "url": "https://www.yelp.com/biz/racha-noodle-redding?adjust_creative=zK_8YyrBF4oJMk_q6FAH-w&utm_campaign=yelp_api_v3&utm_medium=api_v3_business_search&utm_source=zK_8YyrBF4oJMk_q6FAH-w", "review_count": 132, "categories": [{"alias": "noodles", "title": "Noodles"}], "rating": 4.0, "coordinates": {"latitude": 40.57189, "longitude": -122.38845}, "transactions": [], "price": "$$", "location": {"address1": "2630 S Market St", "address2": "", "address3": "", "city": "Redding", "zip_code": "96001", "country": "US", "state": "CA", "display_address": ["2630 S Market St", "Redding, CA 96001"]}, "phone": "+15302468730", "display_phone": "(530) 246-8730", "distance": 2306.3764450305557}, {"id": "OWueaFhxWzPLohp2c-OQSw", "alias": "thai-house-restaurant-redding", "name": "Thai House Restaurant", "image_url": "https://s3-media3.fl.yelpcdn.com/bphoto/8q-UlsnkMoL7cWpKrKMe5A/o.jpg", "is_closed": false, "url": "https://www.yelp.com/biz/thai-house-restaurant-redding?adjust_creative=zK_8YyrBF4oJMk_q6FAH-w&utm_campaign=yelp_api_v3&utm_medium=api_v3_business_search&utm_source=zK_8YyrBF4oJMk_q6FAH-w", "review_count": 7, "categories": [{"alias": "thai", "title": "Thai"}, {"alias": "chinese", "title": "Chinese"}], "rating": 4.5, "coordinates": {"latitude": 40.567209, "longitude": -122.353453}, "transactions": ["restaurant_reservation"], "location": {"address1": "2772 Churn Crk Rd", "address2": null, "address3": "", "city": "Redding", "zip_code": "96002", "country": "US", "state": "CA", "display_address": ["2772 Churn Crk Rd", "Redding, CA 96002"]}, "phone": "+15302226868", "display_phone": "(530) 222-6868", "distance": 1034.466797945943}, {"id": "WvpwRHZpvRQITjfrWpb53Q", "alias": "kasalong-thai-cuisine-redding", "name": "Kasalong Thai Cuisine", "image_url": "https://s3-media3.fl.yelpcdn.com/bphoto/6PNtqr2gBElOqiJY7_FdWg/o.jpg", "is_closed": false, "url": "https://www.yelp.com/biz/kasalong-thai-cuisine-redding?adjust_creative=zK_8YyrBF4oJMk_q6FAH-w&utm_campaign=yelp_api_v3&utm_medium=api_v3_business_search&utm_source=zK_8YyrBF4oJMk_q6FAH-w", "review_count": 1, "categories": [{"alias": "foodtrucks", "title": "Food Trucks"}, {"alias": "thai", "title": "Thai"}], "rating": 5.0, "coordinates": {"latitude": 40.5245627, "longitude": -122.38322681084873}, "transactions": [], "location": {"address1": "6185 Westside Rd", "address2": null, "address3": "", "city": "Redding", "zip_code": "96001", "country": "US", "state": "CA", "display_address": ["6185 Westside Rd", "Redding, CA 96001"]}, "phone": "+15306916803", "display_phone": "(530) 691-6803", "distance": 5807.96985276602}, {"id": "AePMatI_NRGHPMcs4aIWhg", "alias": "fusion-lounge-bar-and-grill-redding", "name": "Fusion Lounge Bar & Grill", "image_url": "https://s3-media3.fl.yelpcdn.com/bphoto/nbT3LSXd2BdebQi7zxyRfA/o.jpg", "is_closed": false, "url": "https://www.yelp.com/biz/fusion-lounge-bar-and-grill-redding?adjust_creative=zK_8YyrBF4oJMk_q6FAH-w&utm_campaign=yelp_api_v3&utm_medium=api_v3_business_search&utm_source=zK_8YyrBF4oJMk_q6FAH-w", "review_count": 159, "categories": [{"alias": "asianfusion", "title": "Asian Fusion"}, {"alias": "newamerican", "title": "American (New)"}, {"alias": "wraps", "title": "Wraps"}], "rating": 4.5, "coordinates": {"latitude": 40.581835, "longitude": -122.3918033}, "transactions": ["delivery"], "price": "$$", "location": {"address1": "1545 Placer St", "address2": "", "address3": "", "city": "Redding", "zip_code": "96001", "country": "US", "state": "CA", "display_address": ["1545 Placer St", "Redding, CA 96001"]}, "phone": "+15307681360", "display_phone": "(530) 768-1360", "distance": 2690.1546793132966}, {"id": "OvkrWSyJAnny0KTxmTL8BQ", "alias": "leiz-house-seafood-and-noodle-redding", "name": "Leiz House Seafood & Noodle", "image_url": "https://s3-media2.fl.yelpcdn.com/bphoto/TA-EohcH_bMGzg0a4pp8GA/o.jpg", "is_closed": false, "url": "https://www.yelp.com/biz/leiz-house-seafood-and-noodle-redding?adjust_creative=zK_8YyrBF4oJMk_q6FAH-w&utm_campaign=yelp_api_v3&utm_medium=api_v3_business_search&utm_source=zK_8YyrBF4oJMk_q6FAH-w", "review_count": 71, "categories": [{"alias": "seafood", "title": "Seafood"}, {"alias": "noodles", "title": "Noodles"}], "rating": 4.5, "coordinates": {"latitude": 40.5946876570719, "longitude": -122.359822131693}, "transactions": [], "price": "$$", "location": {"address1": "920 Hilltop Dr", "address2": "Ste A", "address3": null, "city": "Redding", "zip_code": "96003", "country": "US", "state": "CA", "display_address": ["920 Hilltop Dr", "Ste A", "Redding, CA 96003"]}, "phone": "+15302151530", "display_phone": "(530) 215-1530", "distance": 2289.357527689063}, {"id": "IH6C0kOyZ_Mq3FilB8qPGg", "alias": "pho-saigon-redding", "name": "Pho Saigon", "image_url": "https://s3-media3.fl.yelpcdn.com/bphoto/e5lNUj5eGI8NA0AqV29ajA/o.jpg", "is_closed": false, "url": "https://www.yelp.com/biz/pho-saigon-redding?adjust_creative=zK_8YyrBF4oJMk_q6FAH-w&utm_campaign=yelp_api_v3&utm_medium=api_v3_business_search&utm_source=zK_8YyrBF4oJMk_q6FAH-w", "review_count": 138, "categories": [{"alias": "vietnamese", "title": "Vietnamese"}], "rating": 3.5, "coordinates": {"latitude": 40.566944, "longitude": -122.370404}, "transactions": ["delivery"], "price": "$$", "location": {"address1": "236 Hartnell Ave", "address2": "", "address3": "", "city": "Redding", "zip_code": "96002", "country": "US", "state": "CA", "display_address": ["236 Hartnell Ave", "Redding, CA 96002"]}, "phone": "+15302239888", "display_phone": "(530) 223-9888", "distance": 1092.467119479218}, {"id": "HSYAmm-BN1etAeWPrgZb_A", "alias": "kanya-market-redding", "name": "Kanya Market", "image_url": "https://s3-media2.fl.yelpcdn.com/bphoto/0ruT9SpCB1hEg7jj4zVfIQ/o.jpg", "is_closed": false, "url": "https://www.yelp.com/biz/kanya-market-redding?adjust_creative=zK_8YyrBF4oJMk_q6FAH-w&utm_campaign=yelp_api_v3&utm_medium=api_v3_business_search&utm_source=zK_8YyrBF4oJMk_q6FAH-w", "review_count": 64, "categories": [{"alias": "hotdogs", "title": "Fast Food"}, {"alias": "thai", "title": "Thai"}], "rating": 4.0, "coordinates": {"latitude": 40.564221, "longitude": -122.353474}, "transactions": ["delivery"], "price": "$", "location": {"address1": "970 Hartnell Ave", "address2": "", "address3": "", "city": "Redding", "zip_code": "96002", "country": "US", "state": "CA", "display_address": ["970 Hartnell Ave", "Redding, CA 96002"]}, "phone": "+15302227609", "display_phone": "(530) 222-7609", "distance": 1299.5160515359833}, {"id": "6V9a5Adj-aFy2ZSM09h0sg", "alias": "boba-tea-and-coffee-redding", "name": "Boba Tea & Coffee", "image_url": "https://s3-media3.fl.yelpcdn.com/bphoto/NTr5vMEl8TYhbFDtlUdP-A/o.jpg", "is_closed": false, "url": "https://www.yelp.com/biz/boba-tea-and-coffee-redding?adjust_creative=zK_8YyrBF4oJMk_q6FAH-w&utm_campaign=yelp_api_v3&utm_medium=api_v3_business_search&utm_source=zK_8YyrBF4oJMk_q6FAH-w", "review_count": 116, "categories": [{"alias": "taiwanese", "title": "Taiwanese"}, {"alias": "vietnamese", "title": "Vietnamese"}, {"alias": "coffee", "title": "Coffee & Tea"}], "rating": 4.0, "coordinates": {"latitude": 40.5639496, "longitude": -122.3529816}, "transactions": ["pickup"], "price": "$", "location": {"address1": "2999 Churn Creek Rd", "address2": "", "address3": "", "city": "Redding", "zip_code": "96002", "country": "US", "state": "CA", "display_address": ["2999 Churn Creek Rd", "Redding, CA 96002"]}, "phone": "+15302211930", "display_phone": "(530) 221-1930", "distance": 1342.647391217999}, {"id": "8DQ7BdSsO5k6N5BE3Chhcw", "alias": "new-china-redding", "name": "New China", "image_url": "https://s3-media2.fl.yelpcdn.com/bphoto/9l-4AYuJXTBK2K_Bfe7lNg/o.jpg", "is_closed": false, "url": "https://www.yelp.com/biz/new-china-redding?adjust_creative=zK_8YyrBF4oJMk_q6FAH-w&utm_campaign=yelp_api_v3&utm_medium=api_v3_business_search&utm_source=zK_8YyrBF4oJMk_q6FAH-w", "review_count": 221, "categories": [{"alias": "chinese", "title": "Chinese"}, {"alias": "seafood", "title": "Seafood"}, {"alias": "soup", "title": "Soup"}], "rating": 4.0, "coordinates": {"latitude": 40.583114, "longitude": -122.425491}, "transactions": ["delivery", "pickup"], "price": "$$", "location": {"address1": "3669 Eureka Way", "address2": "", "address3": "", "city": "Redding", "zip_code": "96001", "country": "US", "state": "CA", "display_address": ["3669 Eureka Way", "Redding, CA 96001"]}, "phone": "+15302469522", "display_phone": "(530) 246-9522", "distance": 5487.043284924989}, {"id": "4dzE57iooJCghpI5C34Ozg", "alias": "fresh-fire-grill-redding", "name": "Fresh Fire Grill - Asian/American Fusion Restaurant", "image_url": "https://s3-media3.fl.yelpcdn.com/bphoto/9twPO2kBzLBFQE5J-eLWhw/o.jpg", "is_closed": false, "url": "https://www.yelp.com/biz/fresh-fire-grill-redding?adjust_creative=zK_8YyrBF4oJMk_q6FAH-w&utm_campaign=yelp_api_v3&utm_medium=api_v3_business_search&utm_source=zK_8YyrBF4oJMk_q6FAH-w", "review_count": 87, "categories": [{"alias": "asianfusion", "title": "Asian Fusion"}, {"alias": "tradamerican", "title": "American (Traditional)"}], "rating": 4.0, "coordinates": {"latitude": 40.6115834469062, "longitude": -122.379592036909}, "transactions": ["delivery", "pickup"], "location": {"address1": "161 Lake Blvd", "address2": null, "address3": "", "city": "Redding", "zip_code": "96003", "country": "US", "state": "CA", "display_address": ["161 Lake Blvd", "Redding, CA 96003"]}, "phone": "+15307685688", "display_phone": "(530) 768-5688", "distance": 4431.579792001928}, {"id": "0KYR7h1KXWhKKnNLTZohRQ", "alias": "fresh-fire-grill-palo-cedro", "name": "Fresh Fire Grill", "image_url": "https://s3-media4.fl.yelpcdn.com/bphoto/oUGtRh9G16wraSjRTBfpzA/o.jpg", "is_closed": false, "url": "https://www.yelp.com/biz/fresh-fire-grill-palo-cedro?adjust_creative=zK_8YyrBF4oJMk_q6FAH-w&utm_campaign=yelp_api_v3&utm_medium=api_v3_business_search&utm_source=zK_8YyrBF4oJMk_q6FAH-w", "review_count": 175, "categories": [{"alias": "asianfusion", "title": "Asian Fusion"}, {"alias": "burgers", "title": "Burgers"}, {"alias": "bbq", "title": "Barbeque"}], "rating": 4.5, "coordinates": {"latitude": 40.56439573760859, "longitude": -122.23901528220894}, "transactions": ["delivery"], "price": "$", "location": {"address1": "9520 Deschutes Rd", "address2": "", "address3": "", "city": "Palo Cedro", "zip_code": "96073", "country": "US", "state": "CA", "display_address": ["9520 Deschutes Rd", "Palo Cedro, CA 96073"]}, "phone": "+15302271740", "display_phone": "(530) 227-1740", "distance": 10411.028811365093}]